[{"id":"7278420508","name":"Unnamed Charging Station","operator":"Unknown","latitude":45.5174746,"longitude":-122.680112,"distance_m":242,"connectors":["J-1772"],"access":"public","fee":true,"source":"Open Charge Map"},{"id":"4753977822","name":"Unnamed Charging Station","operator":"Unknown","latitude":45.5153092,"longitude":-122.6782222,"distance_m":315,"connectors":["Level 2"],"access":"public","fee":"unknown","source":"Open Charge Map"},{"id":"11246283833","name":"Tesla Supercharger","operator":"Tesla","latitude":45.51844,"longitude":-122.68045,"distance_m":317,"address":"805 SW Broadway, Portland, OR 97205","connectors":["NACS"],"connectors_count":4,"power_kw":250,"access":"customers","fee":true,"hours":"24/7","source":"supercharge.info / Open Charge Map"},{"id":"7278420507","name":"Blink","operator":"Blink","latitude":45.5187165,"longitude":-122.6761838,"distance_m":565,"connectors":["Level 2"],"capacity":4,"access":"public","fee":"unknown","source":"Plug Share"},{"id":"10144741321","name":"Unnamed Charging Station","operator":"Unknown","latitude":45.5121791,"longitude":-122.6769047,"distance_m":580,"connectors":["Unknown"],"capacity":5,"access":"customers","fee":"unknown","source":"Open Charge Map"},{"id":"7278416012","name":"Blink","operator":"Blink","latitude":45.5154353,"longitude":-122.674201,"distance_m":624,"connectors":["J-1772"],"access":"public","fee":true,"source":"Plug Share / Open Charge Map"},{"id":"7278416011","name":"Unnamed Charging Station","operator":"Unknown","latitude":45.5161175,"longitude":-122.6739227,"distance_m":644,"connectors":["J-1772","CCS","CHAdeMO"],"access":"public","fee":true,"source":"Plug Share"},{"id":"10272244809","name":"ChargePoint","operator":"ChargePoint","latitude":45.5113085,"longitude":-122.6763146,"distance_m":682,"connectors":["Standard"],"access":"public","fee":"unknown","source":"Open Charge Map"},{"id":"10272259309","name":"Unnamed Charging Station","operator":"Unknown","latitude":45.511037,"longitude":-122.6765733,"distance_m":692,"connectors":["Unknown"],"access":"public","fee":"unknown","source":"Open Charge Map"},{"id":"7278420506","name":"Blink","operator":"Blink","latitude":45.5174493,"longitude":-122.673031,"distance_m":735,"connectors":["Level 2"],"access":"public","fee":"unknown","source":"Open Charge Map"}]